stop_id,stop_name,stop_type,coordinates
6200208410,North Bridge,bus,"[-3.188241, 55.951791]"
6200208420,North Bridge,bus,"[-3.187983, 55.951209]"
6200208440,South Bridge,bus,"[-3.186588, 55.948527]"
6200208470,Surgeons' Hall,bus,"[-3.184362, 55.945385]"
6200208540,St Patrick Square,bus,"[-3.182549, 55.942644]"
6200208660,Salisbury Place,bus,"[-3.177546, 55.937112]"
6200208690,East Savile Road,bus,"[-3.170965, 55.930687]"
6200209020,Lady Road,bus,"[-3.166548, 55.925913]"
6200209070,Liberton Cemetery,bus,"[-3.163539, 55.913092]"
6200209130,Kaimes Crossroads,bus,"[-3.163722, 55.901041]"
6200239470,Kaimes Crossroads,bus,"[-3.16398, 55.90112]"
6200239480,Mortonhall Crematorium,bus,"[-3.166035, 55.903526]"
6200239540,Liberton Cemetery,bus,"[-3.164256, 55.913544]"
6200239585,Lady Road,bus,"[-3.166821, 55.925947]"
6200239910,East Savile Road,bus,"[-3.171369, 55.930809]"
6200239950,Newington Road,bus,"[-3.178333, 55.937707]"
6200240060,St Patrick Square,bus,"[-3.183305, 55.943284]"
6200240120,Surgeons' Hall,bus,"[-3.184901, 55.94574]"
6200600748,Bus Station,bus,"[-3.191636, 55.955415]"
6280301970,Nivensknowe Park,bus,"[-3.1738, 55.875175]"
6280301976,Asda Straiton,bus,"[-3.170716, 55.878906]"
6280301980,Seafield Road,bus,"[-3.176972, 55.871173]"
6280301990,Roslin Road,bus,"[-3.178002, 55.869842]"
6280302000,Moorfoot View,bus,"[-3.180155, 55.867063]"
6280302010,Ploverhall Cottages,bus,"[-3.183131, 55.862964]"
6280302100,Bush Access,bus,"[-3.186048, 55.85856]"
6280302140,Milton Cottages,bus,"[-3.190564, 55.852622]"
6280302150,Golf Club,bus,"[-3.199243, 55.849689]"
6280302160,Glencorse Barracks,bus,"[-3.203638, 55.846142]"
6280302165,Samoa Terrace,bus,"[-3.206969, 55.84335]"
6280302170,Beeslack High School,bus,"[-3.213441, 55.840393]"
6280302280,Mauricewood Road,bus,"[-3.21673, 55.838842]"
6280302440,Queensway,bus,"[-3.220243, 55.835779]"
6280302450,Cuiken Avenue,bus,"[-3.222436, 55.833421]"
6280302470,Wilson Street,bus,"[-3.223004, 55.829138]"
6280302490,Town Centre,bus,"[-3.221611, 55.827993]"
6280302495,Town Centre,bus,"[-3.221163, 55.827944]"
6280302560,Lambs Pend,bus,"[-3.221709, 55.82617]"
6280302570,Pomathorn Road,bus,"[-3.220621, 55.82289]"
6280302580,Wellington School,bus,"[-3.222151, 55.797347]"
6280302590,Leadburn Inn,bus,"[-3.221543, 55.787603]"
6280309180,Loanhead Road,bus,"[-3.163559, 55.887591]"
6280309195,Straiton Cottages,bus,"[-3.166271, 55.884205]"
6280325080,Leadburn Inn,bus,"[-3.221916, 55.7868]"
6280325090,Wellington School,bus,"[-3.222834, 55.798283]"
6280325100,Pomathorn Road,bus,"[-3.221835, 55.823921]"
6280325110,Lambs Pend,bus,"[-3.221749, 55.826246]"
6280325170,Town Centre,bus,"[-3.221475, 55.827734]"
6280325180,Wilson Street,bus,"[-3.222985, 55.828537]"
6280325190,John Street Lane,bus,"[-3.223965, 55.830243]"
6280325200,Angle Park,bus,"[-3.22422, 55.831256]"
6280325210,Cuiken Avenue,bus,"[-3.222542, 55.833744]"
6280325300,Queensway,bus,"[-3.220133, 55.836347]"
6280325490,Mauricewood Road,bus,"[-3.216406, 55.839205]"
6280325500,Beeslack High School,bus,"[-3.212539, 55.841184]"
6280325505,Samoa Terrace,bus,"[-3.209126, 55.842853]"
6280325510,Glencorse Barracks,bus,"[-3.204177, 55.846002]"
6280325530,Milton Cottages,bus,"[-3.192933, 55.851745]"
6280325560,Bush Access,bus,"[-3.186442, 55.858359]"
6280325680,Ploverhall Cottages,bus,"[-3.182952, 55.863918]"
6280325685,Castlelaw Crescent,bus,"[-3.181341, 55.866099]"
6280325690,Moorfoot View,bus,"[-3.178998, 55.868943]"
6280325700,Roslin Road,bus,"[-3.178264, 55.870028]"
6280325715,Nivensknowe Park,bus,"[-3.173368, 55.876221]"
6280325720,New Pentland Road,bus,"[-3.171042, 55.879119]"
6280339430,Straiton Cottages,bus,"[-3.166416, 55.884752]"
6280339440,Loanhead Road,bus,"[-3.164227, 55.887459]"
69001028,Horsbrugh Terrace,bus,"[-3.059794, 55.620227]"
69001029,Horsbrugh Terrace,bus,"[-3.059581, 55.620571]"
69001044,Post Office,bus,"[-3.187788, 55.65197]"
69001070,Caberston Avenue,bus,"[-3.02586, 55.625081]"
69001071,Peebles Road,bus,"[-3.021996, 55.624784]"
69001072,former Mill,bus,"[-3.018993, 55.623592]"
69001074,Village Hall,bus,"[-3.012682, 55.623977]"
69001075,Village Hall,bus,"[-3.012229, 55.624242]"
69001108,Wood Street,bus,"[-2.836975, 55.627369]"
69001125,Bridge Street,bus,"[-2.811759, 55.619119]"
69001126,Hall Street,bus,"[-2.813641, 55.619538]"
69001235,Thornielee Rd End,bus,"[-2.933679, 55.616715]"
69001236,Thornielee Rd End,bus,"[-2.934135, 55.616514]"
69001240,Old Station,bus,"[-3.112899, 55.640213]"
69001247,Holylee Lodge,bus,"[-2.96959, 55.626832]"
69001287,Station Road,bus,"[-3.207563, 55.710446]"
69001288,Station Road,bus,"[-3.20723, 55.710503]"
69001289,Winkston Farm,bus,"[-3.202082, 55.673981]"
69001290,Winkston Farm,bus,"[-3.202599, 55.674236]"
69001291,Shiplaw Rd,bus,"[-3.205457, 55.727863]"
69001292,Shiplaw Road,bus,"[-3.205748, 55.728013]"
69001293,Portmore Estate,bus,"[-3.205145, 55.723939]"
69001294,Portmore Estate,bus,"[-3.205449, 55.723999]"
69001295,Fala Toll,bus,"[-3.204417, 55.747345]"
69001296,Fala Toll,bus,"[-3.204877, 55.747799]"
69001297,Craigburn Wood,bus,"[-3.215671, 55.775737]"
69001298,Craigburn Wood,bus,"[-3.216166, 55.775759]"
69001299,Velvet Hall Cotts,bus,"[-3.088914, 55.625292]"
69001300,Velvet Hall Cotts,bus,"[-3.08907, 55.625219]"
69001302,Glentress Hotel,bus,"[-3.139335, 55.644387]"
69001303,Linnburn,bus,"[-3.144624, 55.644868]"
69001304,Linnburn,bus,"[-3.144852, 55.645055]"
69001305,Eshiels Mill,bus,"[-3.153116, 55.64619]"
69001444,Scottish Water,bus,"[-3.006496, 55.626104]"
69001445,Firholm,bus,"[-3.183545, 55.651472]"
69001460,Caddonfoot Road,bus,"[-2.876956, 55.617744]"
69001465,High Tweed Mill,bus,"[-2.823139, 55.623419]"
69001589,Bridges Rd End,bus,"[-3.185297, 55.65265]"
69001646,The Nest Kennels,bus,"[-2.903125, 55.608838]"
69001647,The Nest Kennels,bus,"[-2.90325, 55.608775]"
69001654,Woodlea,bus,"[-2.828947, 55.624737]"
69001679,Eshiels Mill,bus,"[-3.153848, 55.646219]"
69001681,Cringletie House,bus,"[-3.212228, 55.68842]"
69001682,Cringletie House,bus,"[-3.211907, 55.688325]"
69001700,Woodend Lodge,bus,"[-3.09492, 55.628267]"
69001701,Glenormiston Lodge,bus,"[-3.094701, 55.628367]"
69001704,Lodge,bus,"[-2.846099, 55.629939]"
69001705,Lodge,bus,"[-2.846114, 55.629903]"
69001721,Wood Street Church,bus,"[-2.834672, 55.626621]"
69001722,Aldi,bus,"[-2.822525, 55.622911]"
69002001,Transport Interchange,bus,"[-2.805946, 55.617468]"
6900202,Meigle Row,bus,"[-2.87406, 55.619607]"
6900203,Station Yard,bus,"[-2.874014, 55.619652]"
6900205,The Clovenfords Hotel,bus,"[-2.876242, 55.618585]"
6900206,Caddonfoot Road,bus,"[-2.876762, 55.617593]"
690030470,The Nest Roundabout,bus,"[-2.898718, 55.607748]"
690030472,The Nest Roundabout,bus,"[-2.89924, 55.607672]"
6900315,Wood Street,bus,"[-2.837155, 55.627637]"
6900316,Wood Street Church,bus,"[-2.833717, 55.626519]"
6900317,Wood Street,bus,"[-2.831349, 55.625664]"
6900332,Bank Street Gardens,bus,"[-2.807441, 55.615284]"
6900333,Iceland,bus,"[-2.810567, 55.6175]"
6900337,Wood Street,bus,"[-2.831586, 55.625626]"
6900407,Annie's Cafe,bus,"[-2.819822, 55.622013]"
6900408,Purves' Garage,bus,"[-2.816913, 55.621079]"
6900409,B and Q,bus,"[-2.815039, 55.620337]"
6900412,Woodlea,bus,"[-2.828342, 55.624651]"
6900479,Union Club,bus,"[-3.066509, 55.617928]"
6900480,Co-op,bus,"[-3.066367, 55.61787]"
6900481,Tweedside Hotel,bus,"[-3.064172, 55.618896]"
6900489,Tweedside Hotel,bus,"[-3.063634, 55.618963]"
6900696,Hydro Rd End,bus,"[-3.176567, 55.650353]"
6900697,Hydro Rd End,bus,"[-3.17641, 55.650408]"
6900700,Firholm,bus,"[-3.183285, 55.651259]"
6900704,Scout Hall,bus,"[-3.188642, 55.65499]"
6900706,East Station Car Park,bus,"[-3.186778, 55.653786]"
6900812,Caberston Avenue,bus,"[-3.026604, 55.624994]"
6900813,Peebles Road,bus,"[-3.02309, 55.624825]"
6900815,former Mill,bus,"[-3.018315, 55.623778]"
6900817,Post Office,bus,"[-3.01661, 55.623585]"
6900840,Horsbrugh Ford Cotts,bus,"[-3.116376, 55.642181]"
6900841,Horsbrugh Ford Cotts,bus,"[-3.117188, 55.642237]"
6900949,Peebles High School Campus,bus,"[-3.190923, 55.645838]"
6900964,Dalatho Crescent South,bus,"[-3.191548, 55.658035]"
6900965,Dalatho Crescent South,bus,"[-3.191261, 55.658002]"
6900966,Dalatho Street,bus,"[-3.191984, 55.659334]"
6900967,Dalatho Street,bus,"[-3.19185, 55.659622]"
6900968,Dalatho Crescent North,bus,"[-3.192673, 55.66107]"
6900969,Harrisons Garage,bus,"[-3.192592, 55.661529]"
6900970,Horseshoe Inn,bus,"[-3.206599, 55.712216]"
6900971,Horseshoe Inn,bus,"[-3.206455, 55.712191]"
